name,address,operating_time,contact,lat,lng,lat,lng
休서울이동노동자 서초쉼터," 서울 서초구 사평대로 354, 4층", 월~금 18, 070-5101-5431,37.5033745,127.0219975,37.5033745,127.0219975
休서울이동노동자 북창쉼터," 서울 중구 세종대로14길 38, 2층", 월~금 08, 02-722-7214,37.56259060000001,126.9787281,37.56259060000001,126.9787281
休서울이동노동자 합정쉼터, 서울 마포구 양화로 73 체리스빌딩 5층, 월~금 09, 070-7005-5595,37.55140189999999,126.9159153,37.55140189999999,126.9159153
休서울셔틀버스 노동자쉼터," 서울 은평구 통일로 680, 7층", 월~금 09, 070-4267-6677,37.6070208,126.9334277,37.6070208,126.9334277
休서울미디어 노동자쉼터," 서울 마포구 매봉산로 37, 604호", 월~금 09, 1833-8261,37.5760093,126.8905316,37.5760093,126.8905316
강동구 이동노동자지원센터, 서울 강동구 천호대로 175길 58 3층, 월~금 10, 02-488-7974,37.53729209999999,127.1376881,37.53729209999999,127.1376881
이동노동자 강서구 휴쉼터, 서울 강서구 마곡동 745-3, 월~금 09, 070-4169-1701~2,37.5764888,126.8307466,37.5764888,126.8307466
도봉구 이동노동자쉼터, 서울 도봉구 마들로 11길 74 플랫폼창동61 2층, 월~금 10, 02-998-2885,37.6541966,127.048771,37.6541966,127.048771
